[{"id":"1","latitude":"-22.2292393","longitude":"-45.93310280000003","descricao":"Antidoto cosmeticos","endereco":"R. S\u00e3o Jo\u00e3o, 14 - Centro"},{"id":"2","latitude":"-22.2246233","longitude":"-45.9389693","descricao":"Apice","endereco":"R. Cel. Saturnino de Alc\u00e2ntrara, 315 - Saude"},{"id":"3","latitude":"-22.2307313","longitude":"-45.93593039999996","descricao":"Banca Cometa","endereco":"Pra\u00e7a Sen. Jos\u00e9 Bento, 38 - Centro"},{"id":"4","latitude":"-22.2302529","longitude":"-45.937084200000015","descricao":"Bazar Lo Lo","endereco":"Av. Duque de Caxias, 290 - Centro"},{"id":"5","latitude":"-22.2277502","longitude":"-45.9263818","descricao":"Bebidas e Cia","endereco":"Av. Vicente Sim\u00f5es, 460-500 - Nova Pouso Alegre"},{"id":"6","latitude":"-22.2278479","longitude":"-45.9335375","descricao":"Bety Comercio de Bolsas","endereco":"R. Bom Jesus, 746-800 - Centro"},{"id":"7","latitude":"-22.2332094","longitude":"-45.934698200000014","descricao":"Bio extratus","endereco":"R. Adalberto Ferraz, 426-502 - S\u00e3o Jos\u00e9"},{"id":"8","latitude":"-22.2304428","longitude":"-45.93560200000002","descricao":"Brasil Treina","endereco":"Travessa Jo\u00e3o Silva, 2-60 - Centro"},{"id":"13","latitude":"-22.2292029","longitude":"-45.932585700000004","descricao":"Gameshop","endereco":"R. Silvestre Ferraz, 388 - Centro"},{"id":"15","latitude":"-22.2250074","longitude":"-45.93066139999996","descricao":"Cereais Garcia magalhaes Ltda","endereco":"Av. Prefeito Sapuca\u00ed, 2-92 - Bom Jesus"},{"id":"16","latitude":"-22.233088","longitude":"-45.9333527","descricao":"Daniele Corretora","endereco":"R. Adolfo Olinto, 91-111 - Centro"},{"id":"26","latitude":"-22.2321894","longitude":"-45.93596260000004","descricao":"Heshe Store","endereco":"R. Adalberto Ferraz, 238-328 - Centro"},{"id":"18","latitude":"-22.2352215","longitude":"-45.94388270000002","descricao":"Drogaria Alvorada","endereco":"R. Silviano Brand\u00e3o, 584 - Jardim Noronha"},{"id":"19","latitude":"-22.2345212","longitude":"-45.93993549999999","descricao":"Drogaria mais humana","endereco":"R. Tiradentes, 215-307 - Santa Cruz"},{"id":"20","latitude":"-22.2342598","longitude":"-45.94250139999997","descricao":"Eletronica Castro e Coutino","endereco":"R. Silviano Brand\u00e3o, 412 - Jardim Noronha"},{"id":"21","latitude":"-22.2299675","longitude":"-45.9374373","descricao":"Emporio Sao Paulo","endereco":"Av. Duque de Caxias, 287 - Centro"},{"id":"22","latitude":"-22.2270576","longitude":"-45.93247510000003","descricao":"Espa\u00e7o Basico\t","endereco":"R. Bom Jesus, 522-576 - Centro"},{"id":"23","latitude":"-22.2333833","longitude":"-45.94128639999997","descricao":"Esta\u00e7\u00e3o Cal\u00e7ados\t","endereco":"R. Silviano Brand\u00e3o, 257 - Jardim Noronha"},{"id":"24","latitude":"-22.2319136","longitude":"-45.93530199999998","descricao":"Flor do Campo","endereco":"Av. Dr. Lisboa, 2-94 - Centro"},{"id":"25","latitude":"-22.2269478","longitude":"-45.932387500000004","descricao":"Havaianas Pouso Alegre","endereco":"R. Bom Jesus, 875 - Centro"},{"id":"27","latitude":"-22.2324434","longitude":"-45.933894899999984","descricao":"Hotel Dias","endereco":"Rua Adolfo Olinto, 184 - Centro"},{"id":"28","latitude":"-22.2305253","longitude":"-45.935319600000014","descricao":"Jamil modas","endereco":"R. Dom Assis, 15 - Centro"},{"id":"29","latitude":"-22.2321386","longitude":"-45.93641809999997","descricao":"JR Recargas","endereco":"Rua Dom Nery, 77, centro"},{"id":"30","latitude":"-22.2292138","longitude":"-45.934033","descricao":"karaca Comunica\u00e7\u00e3o e marketing","endereco":"R. Santo Ant\u00f4nio, 60-66 - Centro"}]